[{"number": "0", "name": "Ballard ", "type": "high school", "address": "1418 NW 65th St ", "zip": "98117", "option_alt": "N/A", "lat": "47.67603649437318", "lng": "-122.37544349999999"}, {"number": "1", "name": "Center School", "type": "high school", "address": "305 Harrison St ", "zip": "98109", "option_alt": "option", "lat": "47.62212149235396", "lng": "-122.35128104832916"}, {"number": "2", "name": "Cleveland", "type": "high school", "address": "5511 15th Ave S ", "zip": "98108", "option_alt": "option", "lat": "47.55231016763807", "lng": "-122.31352468613281"}, {"number": "3", "name": "Franklin ", "type": "high school", "address": "3013 S Mt Baker Blvd ", "zip": "98144", "option_alt": "N/A", "lat": "47.576476841954424", "lng": "-122.29340365037983"}, {"number": "4", "name": "Garfield", "type": "high school", "address": "400 23rd Ave ", "zip": "98122", "option_alt": "N/A", "lat": "47.605201039702166", "lng": "-122.30263410872001"}, {"number": "5", "name": "Nathan Hale", "type": "high school", "address": "10750 30th Ave NE ", "zip": "98125", "option_alt": "N/A", "lat": "47.70804580099832", "lng": "-122.29612071663198"}, {"number": "6", "name": "Ingraham ", "type": "high school", "address": "1819 N 135th St ", "zip": "98133", "option_alt": "N/A", "lat": "47.72682146999366", "lng": "-122.33623308338541"}, {"number": "7", "name": "Interagency", "type": "high school", "address": "3528 S. Ferdinand St.", "zip": "98118", "option_alt": "alternative and service", "lat": "47.55788652986305", "lng": "-122.287113"}, {"number": "8", "name": "Lincoln", "type": "high school", "address": "4400 Interlake Ave. N", "zip": "98103", "option_alt": "N/A", "lat": "47.660147800998345", "lng": "-122.34063073221253"}, {"number": "9", "name": "Middle College", "type": "high school", "address": "401 NE Northgate Way Ste. # 202", "zip": "98125", "option_alt": "alternative and service", "lat": "47.70851010385861", "lng": "-122.323831295842"}, {"number": "10", "name": "Nova", "type": "high school", "address": "2410 E Cherry St. ", "zip": "98122", "option_alt": "N/A", "lat": "47.608023453834306", "lng": "-122.30114057643277"}, {"number": "11", "name": "Rainier Beach ", "type": "high school", "address": "8815 Seward Park Ave. S ", "zip": "98118", "option_alt": "N/A", "lat": "47.524104911737574", "lng": "-122.2646635751911"}, {"number": "12", "name": "Roosevelt ", "type": "high school", "address": "1410 NE 66th St ", "zip": "98115", "option_alt": "N/A", "lat": "47.67656251659018", "lng": "-122.31262961365343"}, {"number": "13", "name": "Sealth", "type": "high school", "address": "2600 SW Thistle St", "zip": "98126", "option_alt": "N/A", "lat": "47.528299464365894", "lng": "-122.36616055536962"}, {"number": "14", "name": "Seattle World School", "type": "high school", "address": "1700 E. Union St.\u00e6", "zip": "98122", "option_alt": "alternative and service", "lat": "47.61293349379626", "lng": "-122.30928"}, {"number": "15", "name": "Skills Center", "type": "high school", "address": "unknown street", "zip": "unknown zip", "option_alt": "alternative and service", "lat": "0.0", "lng": "0.0"}, {"number": "16", "name": "South Lake ", "type": "high school", "address": "8601 Rainier Ave S ", "zip": "98118", "option_alt": "N/A", "lat": "47.52566061226844", "lng": "-122.27001370560852"}, {"number": "17", "name": "West Seattle ", "type": "high school", "address": "3000 California Ave SW ", "zip": "98116", "option_alt": "N/A", "lat": "47.57697000000002", "lng": "-122.38670078212914"}, {"number": "18", "name": "Jane Addams", "type": "middle school", "address": "11051 34th Ave NE ", "zip": "98125", "option_alt": "N/A", "lat": "47.70983639217496", "lng": "-122.29212227052878"}, {"number": "19", "name": "Denny", "type": "middle school", "address": "2601 SW Kenyon St ", "zip": "98126", "option_alt": "N/A", "lat": "47.53185149509525", "lng": "-122.366052"}, {"number": "20", "name": "Robert Eagle Staff", "type": "middle school", "address": "1330 N. 90th Street", "zip": "98103", "option_alt": "N/A", "lat": "47.69418246220151", "lng": "-122.34050172300768"}, {"number": "21", "name": "Eckstein", "type": "middle school", "address": "3003 NE 75th St ", "zip": "98115", "option_alt": "N/A", "lat": "47.68301750620377", "lng": "-122.29486102553523"}, {"number": "22", "name": "Hamilton", "type": "middle school", "address": "1610 N 41st St ", "zip": "98103", "option_alt": "N/A", "lat": "47.656845508799904", "lng": "-122.3380215"}, {"number": "23", "name": "Aki  Kurose", "type": "middle school", "address": "3928 S Graham St ", "zip": "98118", "option_alt": "N/A", "lat": "47.54603247157924", "lng": "-122.28200155536962"}, {"number": "24", "name": "Madison", "type": "middle school", "address": "3429 45th Ave SW ", "zip": "98116", "option_alt": "N/A", "lat": "47.57298232944774", "lng": "-122.38951423446196"}, {"number": "25", "name": "McClure", "type": "middle school", "address": "1915 1st Ave W ", "zip": "98119", "option_alt": "N/A", "lat": "47.63682036663974", "lng": "-122.35834269392309"}, {"number": "26", "name": "Meany", "type": "middle school", "address": "301 21st Ave E", "zip": "98112", "option_alt": "N/A", "lat": "47.621573696087495", "lng": "-122.30476279216884"}, {"number": "27", "name": "Mercer", "type": "middle school", "address": "1600 S Columbian ", "zip": "98108", "option_alt": "N/A", "lat": "47.56320989598318", "lng": "-122.31267320154141"}, {"number": "28", "name": "Seattle World School", "type": "middle school", "address": "1700 E. Union St.\u00e6", "zip": "98122", "option_alt": "alternative and service", "lat": "47.61293349379626", "lng": "-122.30928"}, {"number": "29", "name": "Washington ", "type": "middle school", "address": "2101 S Jackson St ", "zip": "98144", "option_alt": "N/A", "lat": "47.599250489469355", "lng": "-122.3041635"}, {"number": "30", "name": "Whitman ", "type": "middle school", "address": "9201 15th Ave NW ", "zip": "98117", "option_alt": "N/A", "lat": "47.696517", "lng": "-122.3768328188579"}, {"number": "31", "name": "Catharine  Blaine", "type": "k-8", "address": "2550 34th Ave W ", "zip": "98199", "option_alt": "N/A", "lat": "47.642265387731555", "lng": "-122.40095120494655"}, {"number": "32", "name": "Louisa Boren", "type": "k-8", "address": "5950 Delridge Way SW", "zip": "98106", "option_alt": "option", "lat": "47.54811599999999", "lng": "-122.36301280102792"}, {"number": "33", "name": "Broadview-Thomson ", "type": "k-8", "address": "13052 Greenwood Ave N ", "zip": "98133", "option_alt": "N/A", "lat": "47.72468700000002", "lng": "-122.35553116613845"}, {"number": "34", "name": "Cascade Parent Partnership", "type": "k-8", "address": "2919 1st Ave W.", "zip": "98119", "option_alt": "N/A", "lat": "47.646279670552246", "lng": "-122.35818231380894"}, {"number": "35", "name": "Licton Springs ", "type": "k-8", "address": "1330 N. 90th St.", "zip": "98103", "option_alt": "N/A", "lat": "47.69418246220151", "lng": "-122.34050172300768"}, {"number": "36", "name": "Orca", "type": "k-8", "address": "5215 46th Ave S\u00e6", "zip": "98118", "option_alt": "option", "lat": "47.55478500000001", "lng": "-122.27540170113646"}, {"number": "37", "name": "Pathfinder", "type": "k-8", "address": "1901 SW Genesee St\u00e6", "zip": "98106", "option_alt": "option", "lat": "47.56469858132695", "lng": "-122.35812589333959"}, {"number": "38", "name": "Salmon Bay", "type": "k-8", "address": "1810 NW 65th St\u00e6", "zip": "98117", "option_alt": "option", "lat": "47.67601552769866", "lng": "-122.3805105"}, {"number": "39", "name": "South Shore", "type": "k-8", "address": "4800 S Henderson St ", "zip": "98118", "option_alt": "option", "lat": "47.523387596749345", "lng": "-122.27242590325065"}, {"number": "40", "name": "TOPS", "type": "k-8", "address": "2500 Franklin Ave E\u00e6", "zip": "98102", "option_alt": "option", "lat": "47.64235139579086", "lng": "-122.32458045258765"}, {"number": "41", "name": "Hazel Wolf", "type": "k-8", "address": "11530 12th Ave NE\u00e6", "zip": "98125", "option_alt": "option", "lat": "47.71345541909517", "lng": "-122.31516970783115"}, {"number": "42", "name": "Adams", "type": "elementary school", "address": "6110 28th Ave NW", "zip": "98107", "option_alt": "N/A", "lat": "47.6732465522865", "lng": "-122.39295255961478"}, {"number": "43", "name": "Alki", "type": "elementary school", "address": "3010 59th Ave SW ", "zip": "98116", "option_alt": "N/A", "lat": "47.57713074271453", "lng": "-122.40803029612223"}, {"number": "44", "name": "Arbor Heights", "type": "elementary school", "address": "3701 SW 104th Street", "zip": "98146", "option_alt": "N/A", "lat": "47.50989842465728", "lng": "-122.37911642465727"}, {"number": "45", "name": "Daniel Bagley", "type": "elementary school", "address": "7821 Stone Ave N ", "zip": "98103", "option_alt": "N/A", "lat": "47.68619706939232", "lng": "-122.34183130327735"}, {"number": "46", "name": "Beacon Hill", "type": "elementary school", "address": "2025 14th Ave S ", "zip": "98144", "option_alt": "N/A", "lat": "47.58546544463039", "lng": "-122.31471171166804"}, {"number": "47", "name": "Bryant", "type": "elementary school", "address": "3311 NE 60th St ", "zip": "98115", "option_alt": "N/A", "lat": "47.67211749120011", "lng": "-122.2920225"}, {"number": "48", "name": "Cascadia", "type": "elementary school", "address": "1700 North 90th Street ", "zip": "98103", "option_alt": "N/A", "lat": "47.69422468868589", "lng": "-122.33772397852843"}, {"number": "49", "name": "Cedar Park", "type": "elementary school", "address": "13224 37th Ave NE", "zip": "98125", "option_alt": "option", "lat": "47.72579352844943", "lng": "-122.28861067003359"}, {"number": "50", "name": "Frantz Coe", "type": "elementary school", "address": "2424 7th Ave W ", "zip": "98119", "option_alt": "N/A", "lat": "47.64052877546312", "lng": "-122.36624226221981"}, {"number": "51", "name": "Concord", "type": "elementary school", "address": "723 S Concord St ", "zip": "98108", "option_alt": "N/A", "lat": "47.523881495672164", "lng": "-122.3246925"}, {"number": "52", "name": "B.F. Day", "type": "elementary school", "address": "3921 Linden Ave N ", "zip": "98103", "option_alt": "N/A", "lat": "47.65463103136361", "lng": "-122.34864372277653"}, {"number": "53", "name": "Dearborn Park", "type": "elementary school", "address": "2820 S Orcas St ", "zip": "98108", "option_alt": "N/A", "lat": "47.5508804588833", "lng": "-122.2956133694097"}, {"number": "54", "name": "Decatur", "type": "elementary school", "address": "7711 43rd Ave NE", "zip": "98115", "option_alt": "N/A", "lat": "47.68557221426511", "lng": "-122.28218071224497"}, {"number": "55", "name": "Dunlap", "type": "elementary school", "address": "4525 S Cloverdale St ", "zip": "98118", "option_alt": "N/A", "lat": "47.526090504473", "lng": "-122.2748505"}, {"number": "56", "name": "Emerson", "type": "elementary school", "address": "9709 60th Ave S ", "zip": "98118", "option_alt": "N/A", "lat": "47.51482458090484", "lng": "-122.2582611605976"}, {"number": "57", "name": "Fairmount Park", "type": "elementary school", "address": "3800 SW Findlay St ", "zip": "98126", "option_alt": "N/A", "lat": "47.55203351990839", "lng": "-122.38032328129148"}, {"number": "58", "name": "Gatewood", "type": "elementary school", "address": "4320 SW Myrtle St ", "zip": "98136", "option_alt": "N/A", "lat": "47.539897457152534", "lng": "-122.38849517638063"}, {"number": "59", "name": "Bailey Gatzert", "type": "elementary school", "address": "1301 E Yesler Way ", "zip": "98122", "option_alt": "N/A", "lat": "47.60166750230861", "lng": "-122.3156025"}, {"number": "60", "name": "Genesee Hill", "type": "elementary school", "address": "5013 SW Dakota St\u00e6", "zip": "98116", "option_alt": "N/A", "lat": "47.56656695460878", "lng": "-122.39637440269289"}, {"number": "61", "name": "Graham Hill", "type": "elementary school", "address": "5149 S Graham St ", "zip": "98118", "option_alt": "N/A", "lat": "47.546027488458805", "lng": "-122.26855033236194"}, {"number": "62", "name": "Green Lake", "type": "elementary school", "address": "2400 N 65th St ", "zip": "98103", "option_alt": "N/A", "lat": "47.67597550822296", "lng": "-122.32890980682672"}, {"number": "63", "name": "Greenwood", "type": "elementary school", "address": "144 NW 80th St ", "zip": "98117", "option_alt": "N/A", "lat": "47.68697952264971", "lng": "-122.35931099999999"}, {"number": "64", "name": "Hawthorne", "type": "elementary school", "address": "4100 39th Ave S ", "zip": "98118", "option_alt": "N/A", "lat": "47.56589069608748", "lng": "-122.28389178443682"}, {"number": "65", "name": "John Hay", "type": "elementary school", "address": "201 Garfield St ", "zip": "98109", "option_alt": "N/A", "lat": "47.6331144740321", "lng": "-122.35179133236193"}, {"number": "66", "name": "Highland Park", "type": "elementary school", "address": "1012 SW Trenton St ", "zip": "98106", "option_alt": "N/A", "lat": "47.52466250879988", "lng": "-122.34848022300767"}, {"number": "67", "name": "Kimball", "type": "elementary school", "address": "3200 23rd Ave S ", "zip": "98144", "option_alt": "N/A", "lat": "47.57405371717931", "lng": "-122.30332334329755"}, {"number": "68", "name": "Martin Luther King, Jr.", "type": "elementary school", "address": "6725 45th Ave S ", "zip": "98118", "option_alt": "N/A", "lat": "47.54174383236193", "lng": "-122.2765221605976"}, {"number": "69", "name": "Lafayette", "type": "elementary school", "address": "2645 California Ave SW ", "zip": "98116", "option_alt": "N/A", "lat": "47.579886785734885", "lng": "-122.38664466781094"}, {"number": "70", "name": "Laurelhurst", "type": "elementary school", "address": "4530 46th Ave NE ", "zip": "98105", "option_alt": "N/A", "lat": "47.662182167638065", "lng": "-122.27832219340442"}, {"number": "71", "name": "Lawton", "type": "elementary school", "address": "4000 27th Ave W ", "zip": "98199", "option_alt": "N/A", "lat": "47.65667605329215", "lng": "-122.39101371365953"}, {"number": "72", "name": "Leschi", "type": "elementary school", "address": "135 32nd Ave ", "zip": "98122", "option_alt": "N/A", "lat": "47.60215189563742", "lng": "-122.29135100115383"}, {"number": "73", "name": "Lowell", "type": "elementary school", "address": "1058 E Mercer St ", "zip": "98102", "option_alt": "N/A", "lat": "47.624284507646045", "lng": "-122.31835174854291"}, {"number": "74", "name": "Loyal Heights", "type": "elementary school", "address": "7735 25th Ave NW", "zip": "98117", "option_alt": "N/A", "lat": "47.68562340373038", "lng": "-122.38880159050103"}, {"number": "75", "name": "Wing Luke", "type": "elementary school", "address": "7201 Beacon Ave S", "zip": "98108", "option_alt": "N/A", "lat": "47.537699007501836", "lng": "-122.29467762126988"}, {"number": "76", "name": "Madrona", "type": "elementary school", "address": "1121 33rd Ave`", "zip": "98122", "option_alt": "N/A", "lat": "47.61222386955393", "lng": "-122.29042467170609"}, {"number": "77", "name": "Magnolia", "type": "elementary school", "address": "2418 28th Ave. W", "zip": "98199", "option_alt": "N/A", "lat": "47.64060900000001", "lng": "-122.39297174115664"}, {"number": "78", "name": "Maple", "type": "elementary school", "address": "4925 Corson Ave S ", "zip": "98108", "option_alt": "N/A", "lat": "47.557654982803314", "lng": "-122.31825067839985"}, {"number": "79", "name": "Thurgood Marshall", "type": "elementary school", "address": "2401 S Irving St ", "zip": "98144", "option_alt": "N/A", "lat": "47.591167506780685", "lng": "-122.29986166763805"}, {"number": "80", "name": "McDonald", "type": "elementary school", "address": "144 NE 54th St ", "zip": "98105", "option_alt": "option", "lat": "47.66791345715254", "lng": "-122.32659124854291"}, {"number": "81", "name": "McGilvra", "type": "elementary school", "address": "1617 38th Ave E ", "zip": "98112", "option_alt": "N/A", "lat": "47.63407503136361", "lng": "-122.28409124167533"}, {"number": "82", "name": "Montlake", "type": "elementary school", "address": "2409 22nd Ave E ", "zip": "98112", "option_alt": "N/A", "lat": "47.640626497085805", "lng": "-122.30382276995184"}, {"number": "83", "name": "John Muir", "type": "elementary school", "address": "3301 S Horton St ", "zip": "98144", "option_alt": "N/A", "lat": "47.57373652063049", "lng": "-122.29057205398465"}, {"number": "84", "name": "North Beach", "type": "elementary school", "address": "9018 24th Ave NW ", "zip": "98117", "option_alt": "N/A", "lat": "47.69486086372555", "lng": "-122.38753223726151"}, {"number": "85", "name": "Northgate", "type": "elementary school", "address": "11725 1st Ave NE ", "zip": "98125", "option_alt": "N/A", "lat": "47.714840549541236", "lng": "-122.32884079938222"}, {"number": "86", "name": "Olympic Hills", "type": "elementary school", "address": "13018 20th Ave NE", "zip": "98125", "option_alt": "N/A", "lat": "47.7240664715506", "lng": "-122.30725169729956"}, {"number": "87", "name": "Olympic View", "type": "elementary school", "address": "504 NE 95th St ", "zip": "98115", "option_alt": "N/A", "lat": "47.697706504904744", "lng": "-122.32128302983439"}, {"number": "88", "name": "Queen Anne", "type": "elementary school", "address": "520 NE Ravenna Blvd", "zip": "98155", "option_alt": "option", "lat": "47.677019059408984", "lng": "-122.32287659308119"}, {"number": "89", "name": "Rainier View", "type": "elementary school", "address": "11650 Beacon Ave S ", "zip": "98178", "option_alt": "N/A", "lat": "47.49873982954957", "lng": "-122.26430927183641"}, {"number": "90", "name": "John Rogers", "type": "elementary school", "address": "4030 NE 109th St ", "zip": "98125", "option_alt": "N/A", "lat": "47.7074065100989", "lng": "-122.28382243054944"}, {"number": "91", "name": "Roxhill ", "type": "elementary school", "address": "7740 34th Ave SW", "zip": "98126", "option_alt": "N/A", "lat": "47.53284241326679", "lng": "-122.37524331776233"}, {"number": "92", "name": "Sacajawea", "type": "elementary school", "address": "9501 20th Ave NE ", "zip": "98115", "option_alt": "N/A", "lat": "47.698441910352585", "lng": "-122.3069127744239"}, {"number": "93", "name": "Sand Point", "type": "elementary school", "address": "6208 60th Ave NE ", "zip": "98115", "option_alt": "N/A", "lat": "47.673753528160965", "lng": "-122.26349527555001"}, {"number": "94", "name": "Sanislo", "type": "elementary school", "address": "1812 SW Myrtle St ", "zip": "98106", "option_alt": "N/A", "lat": "47.53913948658289", "lng": "-122.35870197584977"}, {"number": "95", "name": "John Stanford", "type": "elementary school", "address": "4057 5th Ave NE\u00e6", "zip": "98105", "option_alt": "option", "lat": "47.65751077990652", "lng": "-122.32349425942026"}, {"number": "96", "name": "Stevens ", "type": "elementary school", "address": "1242 18th Ave E ", "zip": "98112", "option_alt": "N/A", "lat": "47.631923832361935", "lng": "-122.30854270061778"}, {"number": "97", "name": "Thornton Creek", "type": "elementary school", "address": "7712 40th Avenue NE ", "zip": "98115", "option_alt": "option", "lat": "47.685645534277796", "lng": "-122.28525271446759"}, {"number": "98", "name": "Van Asselt", "type": "elementary school", "address": "8311 Beacon Ave S ", "zip": "98118", "option_alt": "N/A", "lat": "47.52912518290152", "lng": "-122.28808300854008"}, {"number": "99", "name": "View Ridge", "type": "elementary school", "address": "7047 50th Ave NE ", "zip": "98115", "option_alt": "N/A", "lat": "47.680668775463126", "lng": "-122.27436223345141"}, {"number": "100", "name": "Viewlands", "type": "elementary school", "address": "10525 3rd Ave NW ", "zip": "98177", "option_alt": "N/A", "lat": "47.70596683236195", "lng": "-122.36084079880528"}, {"number": "101", "name": "Wedgwood", "type": "elementary school", "address": "2720 NE 85th St. ", "zip": "98115", "option_alt": "N/A", "lat": "47.690250523226624", "lng": "-122.29779209864978"}, {"number": "102", "name": "West Seattle", "type": "elementary school", "address": "6760 34th Ave SW ", "zip": "98126", "option_alt": "N/A", "lat": "47.54178141465176", "lng": "-122.3751198581579"}, {"number": "103", "name": "West Woodland ", "type": "elementary school", "address": "5601 4th Ave NW ", "zip": "98107", "option_alt": "N/A", "lat": "47.67018263336027", "lng": "-122.36190128437856"}, {"number": "104", "name": "Licton Springs", "type": "option", "address": "1330 N. 90th St.", "zip": "98103", "option_alt": "option", "lat": "47.69418246220151", "lng": "-122.34050172300768"}, {"number": "105", "name": "BRIDGES", "type": "alternative and service", "address": "unknown street", "zip": "unknown zip", "option_alt": "alternative and service", "lat": "0.0", "lng": "0.0"}, {"number": "106", "name": "Cascade Parent Partnership ", "type": "alternative and service", "address": "2919 1st Ave W.", "zip": "98119", "option_alt": "alternative and service", "lat": "47.646279670552246", "lng": "-122.35818231380894"}, {"number": "107", "name": "Nova ", "type": "alternative and service", "address": "2410 E Cherry St. ", "zip": "98122", "option_alt": "alternative and service", "lat": "47.608023453834306", "lng": "-122.30114057643277"}, {"number": "108", "name": "Original Van Asselt", "type": "alternative and service", "address": "8311 Beacon Ave S ", "zip": "98118", "option_alt": "alternative and service", "lat": "47.52912518290152", "lng": "-122.28808300854008"}, {"number": "109", "name": "South Lake", "type": "alternative and service", "address": "8601 Rainier Ave S ", "zip": "98118", "option_alt": "alternative and service", "lat": "47.52566061226844", "lng": "-122.27001370560852"}]